[[[{"url": "/restaurants/229/sokkelund-cafe-brasserie", "time_table": ["20:45", "21:00", "21:15", "21:30", "21:45", "22:00", "22:15"], "name": "Sokkelund Caf\u00e9 & Brasserie", "address": "Smallegade 36, E,   2000 Frederiksberg"},
{"url": "/restaurants/299/house-of-steaks", "time_table": ["20:45", "21:00", "21:15", "21:30", "21:45", "22:00", "22:15"], "name": "House of Steaks", "address": "Godth\u00e5bsvej 30,   2000 Frederiksberg"},
{"url": "/restaurants/515/promenaden", "time_table": ["21:30", "21:45", "22:00", "22:15", "22:30", "22:45", "23:00"], "name": "Promenaden", "address": "Frederiksberg Alle 58,   1820 Frederiksberg C"},
{"url": "/restaurants/462/san-marco", "time_table": ["21:30", "21:45", "22:00", "22:15", "22:30", "22:45", "23:00"], "name": "San Marco", "address": "Falkoner All\u00e9 10,   2000 Frederiksberg"},
{"url": "/restaurants/500/ristorante-del-fiasco", "time_table": ["21:30", "21:45", "22:00", "22:15", "22:30", "22:45", "23:00"], "name": "Ristorante del Fiasco", "address": "Gl. Kongevej 176,   1850 Frederiksberg C"},
{"url": "/restaurants/175/metropolitain", "time_table": ["10:00", "10:15", "10:30", "10:45", "11:00", "11:15", "11:30"], "name": "Metropolitain", "address": "Solbjergvej 6,   2000 Frederiksberg"},
{"url": "/restaurants/550/spisestedet-overfor", "time_table": ["08:00", "08:15", "08:30", "08:45", "09:00", "09:15", "09:30"], "name": "Spisestedet Overfor", "address": "Rosen\u00f8rns Alle 32,   1970 Frederiksberg C"},
{"url": "/restaurants/473/bjoernekaelderen", "time_table": ["12:00", "12:15", "12:30", "12:45", "13:00", "13:15", "13:30"], "name": "Bj\u00f8rnek\u00e6lderen", "address": "Frederiksberg All\u00e9 55, kld,   1820 Frederiksberg C"},
{"url": "/restaurants/461/belis-bar", "time_table": ["11:30", "11:45", "12:00", "12:15", "12:30", "12:45", "13:00"], "name": "Belis Bar", "address": "Smallegade 1,   2000 Frederiksberg"},
{"url": "/restaurants/224/salon-39", "time_table": ["16:00", "16:15", "16:30", "16:45", "17:00", "17:15", "17:30"], "name": "Salon 39", "address": "Vodroffsvej 39,   1900 Frederiksberg C"},
{"url": "/restaurants/97/cafe-evald", "time_table": ["20:45", "21:00", "21:15", "21:30", "21:45", "22:00", "22:15"], "name": "Caf\u00e9 Evald", "address": "Papirfabrikken 10B,   8600 Silkeborg"},
{"url": "/restaurants/161/nimb-bar-n-grill", "time_table": ["20:45", "21:00", "21:15", "21:30", "21:45", "22:00", "22:15"], "name": "Nimb Bar N Grill", "address": "Bernstorffsgade 5,   1577 K\u00f8benhavn V"},
{"url": "/restaurants/184/biscaya", "time_table": ["20:45", "21:00", "21:15", "21:30", "21:45", "22:00", "22:15"], "name": "Biscaya", "address": "Jernbanegade 4,   1608 K\u00f8benhavn V"},
{"url": "/restaurants/186/il-peccato", "time_table": ["20:45", "21:00", "21:15", "21:30", "21:45", "22:00", "22:15"], "name": "Il Peccato", "address": "Axeltorv 8,   1609 K\u00f8benhavn V"},
{"url": "/restaurants/225/retour-steak-kbh-k", "time_table": ["20:45", "21:00", "21:15", "21:30", "21:45", "22:00", "22:15"], "name": "RETOUR STEAK KBH K", "address": "Ny \u00d8stergade 21,   1101 K\u00f8benhavn K"},
{"url": "/restaurants/323/pintxos", "time_table": ["20:45", "21:00", "21:15", "21:30", "21:45", "22:00", "22:15"], "name": "Pintxos", "address": "Nansensgade 63,   1366 K\u00f8benhavn K"},
{"url": "/restaurants/342/mash-brewer-street-soho", "time_table": ["20:45", "21:00", "21:15", "21:30", "21:45", "22:00", "22:15"], "name": "MASH Brewer Street, Soho", "address": "77 Brewer Street,   W1F 9ZN London, Soho"},
{"url": "/restaurants/482/retour-steak-vesterbro", "time_table": ["20:45", "21:00", "21:15", "21:30", "21:45", "22:00", "22:15"], "name": "RETOUR STEAK VESTERBRO", "address": "Trommesalen 5,   1614 K\u00f8benhavn V"},
{"url": "/restaurants/67/gustavs-bistro-og-butik", "time_table": ["20:45", "21:00", "21:15", "21:30", "21:45", "22:00", "22:15"], "name": "Gustavs Bistro og Butik", "address": "Classensgade 11A,   2100 K\u00f8benhavn \u00d8"},
{"url": "/restaurants/107/no-1", "time_table": ["20:45", "21:00", "21:15", "21:30", "21:45", "22:00", "22:15"], "name": "No 1", "address": "Aarhusgade 1,   2100 K\u00f8benhavn \u00d8"}][[[{"name": "Sokkelund Caf\u00e9 & Brasserie", "url": "/restaurants/229/sokkelund-cafe-brasserie", "longitude": 55.6793073980005, "latitude": 12.526013340000418, "address": "Smallegade 36, E,   2000 Frederiksberg", "time_table": ["21:00", "21:15", "21:30", "21:45", "22:00", "22:15", "22:30"]},
{"name": "House of Steaks", "url": "/restaurants/299/house-of-steaks", "longitude": 55.686457212000505, "latitude": 12.533796357000426, "address": "Godth\u00e5bsvej 30,   2000 Frederiksberg", "time_table": ["21:00", "21:15", "21:30", "21:45", "22:00", "22:15", "22:30"]},
{"name": "Promenaden", "url": "/restaurants/515/promenaden", "longitude": 55.674147408000465, "latitude": 12.539753018000454, "address": "Frederiksberg Alle 58,   1820 Frederiksberg C", "time_table": ["21:30", "21:45", "22:00", "22:15", "22:30", "22:45", "23:00"]},
{"name": "Caf\u00e9 Evald", "url": "/restaurants/97/cafe-evald", "longitude": 56.17293093600051, "latitude": 9.557056637000414, "address": "Papirfabrikken 10B,   8600 Silkeborg", "time_table": ["21:00", "21:15", "21:30", "21:45", "22:00", "22:15", "22:30"]},
{"name": "San Marco", "url": "/restaurants/462/san-marco", "longitude": 55.6793166760005, "latitude": 12.533612475000439, "address": "Falkoner All\u00e9 10,   2000 Frederiksberg", "time_table": ["21:30", "21:45", "22:00", "22:15", "22:30", "22:45", "23:00"]},
{"name": "Biscaya", "url": "/restaurants/184/biscaya", "longitude": 55.676196966000475, "latitude": 12.566110265000418, "address": "Jernbanegade 4,   1608 K\u00f8benhavn V", "time_table": ["21:00", "21:15", "21:30", "21:45", "22:00", "22:15", "22:30"]},
{"name": "Ristorante del Fiasco", "url": "/restaurants/500/ristorante-del-fiasco", "longitude": 55.67822726000048, "latitude": 12.533966100000441, "address": "Gl. Kongevej 176,   1850 Frederiksberg C", "time_table": ["21:30", "21:45", "22:00", "22:15", "22:30", "22:45", "23:00"]},
{"name": "Il Peccato", "url": "/restaurants/186/il-peccato", "longitude": 55.676462494000475, "latitude": 12.564253337000423, "address": "Axeltorv 8,   1609 K\u00f8benhavn V", "time_table": ["21:00", "21:15", "21:30", "21:45", "22:00", "22:15", "22:30"]},
{"name": "Spisestedet Overfor", "url": "/restaurants/550/spisestedet-overfor", "longitude": 55.68230720100047, "latitude": 12.551356809000424, "address": "Rosen\u00f8rns Alle 32,   1970 Frederiksberg C", "time_table": ["08:00", "08:15", "08:30", "08:45", "09:00", "09:15", "09:30"]},
{"name": "RETOUR STEAK KBH K", "url": "/restaurants/225/retour-steak-kbh-k", "longitude": 55.68179319900048, "latitude": 12.581890134000446, "address": "Ny \u00d8stergade 21,   1101 K\u00f8benhavn K", "time_table": ["21:00", "21:15", "21:30", "21:45", "22:00", "22:15", "22:30"]},
{"name": "Metropolitain", "url": "/restaurants/175/metropolitain", "longitude": 55.68097752900047, "latitude": 12.532070735000445, "address": "Solbjergvej 6,   2000 Frederiksberg", "time_table": ["10:00", "10:15", "10:30", "10:45", "11:00", "11:15", "11:30"]},
{"name": "Pintxos", "url": "/restaurants/323/pintxos", "longitude": 55.6844450320005, "latitude": 12.566179806000434, "address": "Nansensgade 63,   1366 K\u00f8benhavn K", "time_table": ["21:00", "21:15", "21:30", "21:45", "22:00", "22:15", "22:30"]},
{"name": "Bj\u00f8rnek\u00e6lderen", "url": "/restaurants/473/bjoernekaelderen", "longitude": 55.67376382100048, "latitude": 12.540940477000447, "address": "Frederiksberg All\u00e9 55, kld,   1820 Frederiksberg C", "time_table": ["12:00", "12:15", "12:30", "12:45", "13:00", "13:15", "13:30"]},
{"name": "MASH Brewer Street, Soho", "url": "/restaurants/342/mash-brewer-street-soho", "longitude": 51.51164003800051, "latitude": -0.13276006799958395, "address": "77 Brewer Street,   W1F 9ZN London, Soho", "time_table": ["21:00", "21:15", "21:30", "21:45", "22:00", "22:15", "22:30"]},
{"name": "Belis Bar", "url": "/restaurants/461/belis-bar", "longitude": 55.6785426240005, "latitude": 12.532086640000443, "address": "Smallegade 1,   2000 Frederiksberg", "time_table": ["11:30", "11:45", "12:00", "12:15", "12:30", "12:45", "13:00"]},
{"name": "RETOUR STEAK VESTERBRO", "url": "/restaurants/482/retour-steak-vesterbro", "longitude": 55.67396980100051, "latitude": 12.560786982000423, "address": "Trommesalen 5,   1614 K\u00f8benhavn V", "time_table": ["21:00", "21:15", "21:30", "21:45", "22:00", "22:15", "22:30"]},
{"name": "Salon 39", "url": "/restaurants/224/salon-39", "longitude": 55.67847564600049, "latitude": 12.554789851000464, "address": "Vodroffsvej 39,   1900 Frederiksberg C", "time_table": ["16:00", "16:15", "16:30", "16:45", "17:00", "17:15", "17:30"]},
{"name": "Nimb Bar N Grill", "url": "/restaurants/161/nimb-bar-n-grill", "longitude": 55.67354469100047, "latitude": 12.565781470000445, "address": "Bernstorffsgade 5,   1577 K\u00f8benhavn V", "time_table": ["21:00", "21:15", "21:30", "21:45", "22:00", "22:15", "22:30"]},
{"name": "Gustavs Bistro og Butik", "url": "/restaurants/67/gustavs-bistro-og-butik", "longitude": 55.69673725100051, "latitude": 12.58177402600046, "address": "Classensgade 11A,   2100 K\u00f8benhavn \u00d8", "time_table": ["21:00", "21:15", "21:30", "21:45", "22:00", "22:15", "22:30"]},
{"name": "No 1", "url": "/restaurants/107/no-1", "longitude": 55.70596746100051, "latitude": 12.578227528000468, "address": "Aarhusgade 1,   2100 K\u00f8benhavn \u00d8", "time_table": ["21:00", "21:15", "21:30", "21:45", "22:00", "22:15", "22:30"]}]