[{"url": "/restaurants/97/cafe-evald", "geometry": {"type": "Point", "coordinates": [9.557056637000414, 56.17293093600051]}, "name": "Caf\u00e9 Evald", "address": "Papirfabrikken 10B,   8600 Silkeborg"},
{"url": "/restaurants/186/il-peccato", "geometry": {"type": "Point", "coordinates": [12.564253337000423, 55.676462494000475]}, "name": "Il Peccato", "address": "Axeltorv 8,   1609 K\u00f8benhavn V"},
{"url": "/restaurants/225/retour-steak-kbh-k", "geometry": {"type": "Point", "coordinates": [12.581890134000446, 55.68179319900048]}, "name": "RETOUR STEAK KBH K", "address": "Ny \u00d8stergade 21,   1101 K\u00f8benhavn K"},
{"url": "/restaurants/323/pintxos", "geometry": {"type": "Point", "coordinates": [12.566179806000434, 55.6844450320005]}, "name": "Pintxos", "address": "Nansensgade 63,   1366 K\u00f8benhavn K"},
{"url": "/restaurants/342/mash-brewer-street-soho", "geometry": {"type": "Point", "coordinates": [-0.13276006799958395, 51.51164003800051]}, "name": "MASH Brewer Street, Soho", "address": "77 Brewer Street,   W1F 9ZN London, Soho"},
{"url": "/restaurants/482/retour-steak-vesterbro", "geometry": {"type": "Point", "coordinates": [12.560786982000423, 55.67396980100051]}, "name": "RETOUR STEAK VESTERBRO", "address": "Trommesalen 5,   1614 K\u00f8benhavn V"},
{"url": "/restaurants/184/biscaya", "geometry": {"type": "Point", "coordinates": [12.566110265000418, 55.676196966000475]}, "name": "Biscaya", "address": "Jernbanegade 4,   1608 K\u00f8benhavn V"},
{"url": "/restaurants/161/nimb-bar-n-grill", "geometry": {"type": "Point", "coordinates": [12.565781470000445, 55.67354469100047]}, "name": "Nimb Bar N Grill", "address": "Bernstorffsgade 5,   1577 K\u00f8benhavn V"},
{"url": "/restaurants/538/spring-paris", "geometry": {"type": "Point", "coordinates": [2.341971617000411, 48.86096735400048]}, "name": "Spring Paris", "address": "6 rue bailleul,   75001 paris"},
{"url": "/restaurants/67/gustavs-bistro-og-butik", "geometry": {"type": "Point", "coordinates": [12.58177402600046, 55.69673725100051]}, "name": "Gustavs Bistro og Butik", "address": "Classensgade 11A,   2100 K\u00f8benhavn \u00d8"},
{"url": "/restaurants/107/no-1", "geometry": {"type": "Point", "coordinates": [12.578227528000468, 55.70596746100051]}, "name": "No 1", "address": "Aarhusgade 1,   2100 K\u00f8benhavn \u00d8"},
{"url": "/restaurants/182/rebel", "geometry": {"type": "Point", "coordinates": [12.586980009000456, 55.68338801400051]}, "name": "Rebel", "address": "Store Kongensgade 52,   1264 K\u00f8benhavn K"},
{"url": "/restaurants/349/eydes-gastro-pub", "geometry": {"type": "Point", "coordinates": [10.381672617000447, 55.39650434900051]}, "name": "Eydes Gastro Pub", "address": "Kongensgade 31A,   5000 Odense C"},
{"url": "/restaurants/372/congo", "geometry": {"type": "Point", "coordinates": [12.586305673000425, 55.682586778000484]}, "name": "Congo", "address": "Store Kongensgade 34,   1264 K\u00f8benhavn K"},
{"url": "/restaurants/517/je-t-aime", "geometry": {"type": "Point", "coordinates": [12.557664533000434, 55.665412733000494]}, "name": "Je t'aime", "address": "Dybb\u00f8lsgade 9,   1721 K\u00f8benhavn V"},
{"url": "/restaurants/18/soeren-k", "geometry": {"type": "Point", "coordinates": [12.582042205000448, 55.673244437000506]}, "name": "s\u00f8ren k", "address": "S\u00f8ren Kierkegaards Plads 1,   1221 K\u00f8benhavn K"},
{"url": "/restaurants/31/madklubben", "geometry": {"type": "Point", "coordinates": [12.587607158000424, 55.684147252000514]}, "name": "Madklubben", "address": "Store Kongensgade 66,   1264 K\u00f8benhavn K"},
{"url": "/restaurants/63/orangeriet", "geometry": {"type": "Point", "coordinates": [12.580232701000455, 55.6869744920005]}, "name": "Orangeriet", "address": "Kronprinsessegade 13,   1307 K\u00f8benhavn K"},
{"url": "/restaurants/227/fusion", "geometry": {"type": "Point", "coordinates": [9.919691507000437, 57.05158668900049]}, "name": "Fusion", "address": "Strandvejen 4, st. tv,   9000 Aalborg"},
{"url": "/restaurants/250/tapasfabrikken", "geometry": {"type": "Point", "coordinates": [12.557861227000444, 55.68606532600052]}, "name": "Tapasfabrikken", "address": "Bl\u00e5g\u00e5rdsgade 29,   2200 K\u00f8benhavn N"},
{"url": "/restaurants/295/mash-skovriderkroen", "geometry": {"type": "Point", "coordinates": [12.587788918000456, 55.749014794000516]}, "name": "MASH Skovriderkroen", "address": "Strandvejen 235,   2920 Charlottenlund"},
{"url": "/restaurants/296/umami", "geometry": {"type": "Point", "coordinates": [12.587592755000458, 55.68424277100047]}, "name": "Umami", "address": "Store Kongensgade 59,   1264 K\u00f8benhavn K"},
{"url": "/restaurants/333/pluto", "geometry": {"type": "Point", "coordinates": [12.58510182900045, 55.68352924800047]}, "name": "PLUTO", "address": "Borgergade 16 st. th,   1300 K\u00f8benhavn K"},
{"url": "/restaurants/352/kjoebenhavn", "geometry": {"type": "Point", "coordinates": [12.583998800000415, 55.684490833000496]}, "name": "Kj\u00f8benhavn", "address": "Dr. Tv\u00e6rgade 10,   1302 K\u00f8benhavn K"},
{"url": "/restaurants/429/kahler-i-tivoli", "geometry": {"type": "Point", "coordinates": [4.338540010000429, 50.770699996000474]}, "name": "K\u00e4hler i Tivoli", "address": "Vesterbrogade 3,   1630 K\u00f8benhavn V"},
{"url": "/restaurants/446/det-lille-vinhus", "geometry": {"type": "Point", "coordinates": [12.586317514000427, 55.68227715800049]}, "name": "Det Lille Vinhus", "address": "Pal\u00e6gade 8,   1261 K\u00f8benhavn K"},
{"url": "/restaurants/55/sky-bar", "geometry": {"type": "Point", "coordinates": [12.577351418000433, 55.6382756910005]}, "name": "SKY BAR", "address": "Center Boulevard 5,   2300 K\u00f8benhavn S"},
{"url": "/restaurants/137/mama-rosa", "geometry": {"type": "Point", "coordinates": [12.580505324000455, 55.67908278200048]}, "name": "Mama Rosa", "address": "\u00d8stergade 57,   1100 K\u00f8benhavn K"},
{"url": "/restaurants/138/nova", "geometry": {"type": "Point", "coordinates": [12.573627400000419, 55.678986555000506]}, "name": "Nova", "address": "Skindergade 34,   1159 K\u00f8benhavn K"}